{
  "type": "FeatureCollection",
  "features": [
    {
      "type": "Feature",
      "properties": {
        "name": "Ramstein Air Base",
        "country": "DE",
        "operator": "US/NATO",
        "type": "air"
      },
      "geometry": {
        "type": "Point",
        "coordinates": [
          7.6,
          49.44
        ]
      }
    },
    {
      "type": "Feature",
      "properties": {
        "name": "Camp Bondsteel",
        "country": "XK",
        "operator": "US/KFOR",
        "type": "army"
      },
      "geometry": {
        "type": "Point",
        "coordinates": [
          21.25,
          42.36
        ]
      }
    },
    {
      "type": "Feature",
      "properties": {
        "name": "Naval Station Rota",
        "country": "ES",
        "operator": "US/NATO",
        "type": "naval"
      },
      "geometry": {
        "type": "Point",
        "coordinates": [
          -6.35,
          36.62
        ]
      }
    },
    {
      "type": "Feature",
      "properties": {
        "name": "RAF Lakenheath",
        "country": "GB",
        "operator": "US/RAF",
        "type": "air"
      },
      "geometry": {
        "type": "Point",
        "coordinates": [
          0.56,
          52.41
        ]
      }
    },
    {
      "type": "Feature",
      "properties": {
        "name": "Incirlik Air Base",
        "country": "TR",
        "operator": "US/NATO",
        "type": "air"
      },
      "geometry": {
        "type": "Point",
        "coordinates": [
          35.43,
          37
        ]
      }
    },
    {
      "type": "Feature",
      "properties": {
        "name": "Kaliningrad",
        "country": "RU",
        "operator": "RU",
        "type": "joint"
      },
      "geometry": {
        "type": "Point",
        "coordinates": [
          20.5,
          54.7
        ]
      }
    },
    {
      "type": "Feature",
      "properties": {
        "name": "Sevastopol",
        "country": "UA",
        "operator": "RU",
        "type": "naval"
      },
      "geometry": {
        "type": "Point",
        "coordinates": [
          33.5,
          44.6
        ]
      }
    },
    {
      "type": "Feature",
      "properties": {
        "name": "Tartus Naval Facility",
        "country": "SY",
        "operator": "RU",
        "type": "naval"
      },
      "geometry": {
        "type": "Point",
        "coordinates": [
          35.89,
          34.89
        ]
      }
    },
    {
      "type": "Feature",
      "properties": {
        "name": "Khmeimim Air Base",
        "country": "SY",
        "operator": "RU",
        "type": "air"
      },
      "geometry": {
        "type": "Point",
        "coordinates": [
          35.95,
          35.4
        ]
      }
    },
    {
      "type": "Feature",
      "properties": {
        "name": "Sigonella NAS",
        "country": "IT",
        "operator": "US/NATO",
        "type": "air"
      },
      "geometry": {
        "type": "Point",
        "coordinates": [
          14.92,
          37.4
        ]
      }
    },
    {
      "type": "Feature",
      "properties": {
        "name": "Souda Bay",
        "country": "GR",
        "operator": "US/NATO",
        "type": "naval"
      },
      "geometry": {
        "type": "Point",
        "coordinates": [
          24.12,
          35.49
        ]
      }
    },
    {
      "type": "Feature",
      "properties": {
        "name": "NATO HQ SHAPE",
        "country": "BE",
        "operator": "NATO",
        "type": "joint"
      },
      "geometry": {
        "type": "Point",
        "coordinates": [
          4.38,
          50.5
        ]
      }
    },
    {
      "type": "Feature",
      "properties": {
        "name": "NATO JFC Brunssum",
        "country": "NL",
        "operator": "NATO",
        "type": "joint"
      },
      "geometry": {
        "type": "Point",
        "coordinates": [
          5.97,
          50.95
        ]
      }
    },
    {
      "type": "Feature",
      "properties": {
        "name": "NATO JFC Naples",
        "country": "IT",
        "operator": "NATO",
        "type": "joint"
      },
      "geometry": {
        "type": "Point",
        "coordinates": [
          14.29,
          40.82
        ]
      }
    },
    {
      "type": "Feature",
      "properties": {
        "name": "Île Longue (SSBN base)",
        "country": "FR",
        "operator": "FR",
        "type": "naval"
      },
      "geometry": {
        "type": "Point",
        "coordinates": [
          -4.52,
          48.3
        ]
      }
    },
    {
      "type": "Feature",
      "properties": {
        "name": "Toulon Naval Base",
        "country": "FR",
        "operator": "FR",
        "type": "naval"
      },
      "geometry": {
        "type": "Point",
        "coordinates": [
          5.93,
          43.1
        ]
      }
    },
    {
      "type": "Feature",
      "properties": {
        "name": "Saint-Dizier AB (nuclear)",
        "country": "FR",
        "operator": "FR",
        "type": "air"
      },
      "geometry": {
        "type": "Point",
        "coordinates": [
          4.9,
          48.63
        ]
      }
    },
    {
      "type": "Feature",
      "properties": {
        "name": "Istres-Le Tubé AB",
        "country": "FR",
        "operator": "FR",
        "type": "air"
      },
      "geometry": {
        "type": "Point",
        "coordinates": [
          4.93,
          43.52
        ]
      }
    },
    {
      "type": "Feature",
      "properties": {
        "name": "HMNB Clyde (Faslane)",
        "country": "GB",
        "operator": "UK",
        "type": "naval"
      },
      "geometry": {
        "type": "Point",
        "coordinates": [
          -4.82,
          56.07
        ]
      }
    },
    {
      "type": "Feature",
      "properties": {
        "name": "HMNB Portsmouth",
        "country": "GB",
        "operator": "UK",
        "type": "naval"
      },
      "geometry": {
        "type": "Point",
        "coordinates": [
          -1.11,
          50.8
        ]
      }
    },
    {
      "type": "Feature",
      "properties": {
        "name": "RAF Fairford",
        "country": "GB",
        "operator": "US/UK",
        "type": "air"
      },
      "geometry": {
        "type": "Point",
        "coordinates": [
          -1.79,
          51.68
        ]
      }
    },
    {
      "type": "Feature",
      "properties": {
        "name": "Akrotiri (Cyprus)",
        "country": "CY",
        "operator": "UK",
        "type": "air"
      },
      "geometry": {
        "type": "Point",
        "coordinates": [
          32.99,
          34.59
        ]
      }
    },
    {
      "type": "Feature",
      "properties": {
        "name": "Murmansk (Northern Fleet)",
        "country": "RU",
        "operator": "RU",
        "type": "naval"
      },
      "geometry": {
        "type": "Point",
        "coordinates": [
          33.09,
          68.97
        ]
      }
    },
    {
      "type": "Feature",
      "properties": {
        "name": "Plesetsk Cosmodrome",
        "country": "RU",
        "operator": "RU",
        "type": "joint"
      },
      "geometry": {
        "type": "Point",
        "coordinates": [
          40.68,
          62.93
        ]
      }
    },
    {
      "type": "Feature",
      "properties": {
        "name": "Aksaz Naval Base",
        "country": "TR",
        "operator": "TR",
        "type": "naval"
      },
      "geometry": {
        "type": "Point",
        "coordinates": [
          28.38,
          36.97
        ]
      }
    },
    {
      "type": "Feature",
      "properties": {
        "name": "Diyarbakır AB",
        "country": "TR",
        "operator": "TR/NATO",
        "type": "air"
      },
      "geometry": {
        "type": "Point",
        "coordinates": [
          40.2,
          37.89
        ]
      }
    },
    {
      "type": "Feature",
      "properties": {
        "name": "Büchel AB (NATO nuclear)",
        "country": "DE",
        "operator": "DE/NATO",
        "type": "air"
      },
      "geometry": {
        "type": "Point",
        "coordinates": [
          7.07,
          50.17
        ]
      }
    },
    {
      "type": "Feature",
      "properties": {
        "name": "Aviano AB",
        "country": "IT",
        "operator": "US/NATO",
        "type": "air"
      },
      "geometry": {
        "type": "Point",
        "coordinates": [
          12.6,
          46.03
        ]
      }
    },
    {
      "type": "Feature",
      "properties": {
        "name": "Ghedi AB (NATO nuclear)",
        "country": "IT",
        "operator": "IT/NATO",
        "type": "air"
      },
      "geometry": {
        "type": "Point",
        "coordinates": [
          10.28,
          45.43
        ]
      }
    },
    {
      "type": "Feature",
      "properties": {
        "name": "Volkel AB (NATO nuclear)",
        "country": "NL",
        "operator": "NL/NATO",
        "type": "air"
      },
      "geometry": {
        "type": "Point",
        "coordinates": [
          5.66,
          51.66
        ]
      }
    },
    {
      "type": "Feature",
      "properties": {
        "name": "Redzikowo (Aegis Ashore)",
        "country": "PL",
        "operator": "US/NATO",
        "type": "joint"
      },
      "geometry": {
        "type": "Point",
        "coordinates": [
          17.1,
          54.48
        ]
      }
    },
    {
      "type": "Feature",
      "properties": {
        "name": "Powidz AB",
        "country": "PL",
        "operator": "PL/US",
        "type": "air"
      },
      "geometry": {
        "type": "Point",
        "coordinates": [
          17.85,
          52.38
        ]
      }
    },
    {
      "type": "Feature",
      "properties": {
        "name": "Deveselu (Aegis Ashore)",
        "country": "RO",
        "operator": "US/NATO",
        "type": "joint"
      },
      "geometry": {
        "type": "Point",
        "coordinates": [
          24.56,
          44.01
        ]
      }
    },
    {
      "type": "Feature",
      "properties": {
        "name": "Mihail Kogălniceanu AB",
        "country": "RO",
        "operator": "US/NATO",
        "type": "air"
      },
      "geometry": {
        "type": "Point",
        "coordinates": [
          28.44,
          44.36
        ]
      }
    },
    {
      "type": "Feature",
      "properties": {
        "name": "Ramsund Naval Station",
        "country": "NO",
        "operator": "NO/NATO",
        "type": "naval"
      },
      "geometry": {
        "type": "Point",
        "coordinates": [
          16.52,
          68.44
        ]
      }
    },
    {
      "type": "Feature",
      "properties": {
        "name": "Ämari AB",
        "country": "EE",
        "operator": "EE/NATO",
        "type": "air"
      },
      "geometry": {
        "type": "Point",
        "coordinates": [
          24.21,
          59.26
        ]
      }
    },
    {
      "type": "Feature",
      "properties": {
        "name": "Šiauliai AB",
        "country": "LT",
        "operator": "LT/NATO",
        "type": "air"
      },
      "geometry": {
        "type": "Point",
        "coordinates": [
          23.39,
          55.89
        ]
      }
    },
    {
      "type": "Feature",
      "properties": {
        "name": "Gaeta Naval Base",
        "country": "IT",
        "operator": "US/IT",
        "type": "naval"
      },
      "geometry": {
        "type": "Point",
        "coordinates": [
          13.57,
          41.21
        ]
      }
    },
    {
      "type": "Feature",
      "properties": {
        "name": "La Maddalena",
        "country": "IT",
        "operator": "IT",
        "type": "naval"
      },
      "geometry": {
        "type": "Point",
        "coordinates": [
          9.41,
          41.21
        ]
      }
    },
    {
      "type": "Feature",
      "properties": {
        "name": "Trapani-Birgi AB",
        "country": "IT",
        "operator": "IT/NATO",
        "type": "air"
      },
      "geometry": {
        "type": "Point",
        "coordinates": [
          12.49,
          37.91
        ]
      }
    },
    {
      "type": "Feature",
      "properties": {
        "name": "Amendola AB",
        "country": "IT",
        "operator": "IT/NATO",
        "type": "air"
      },
      "geometry": {
        "type": "Point",
        "coordinates": [
          15.72,
          41.54
        ]
      }
    },
    {
      "type": "Feature",
      "properties": {
        "name": "Taranto Naval Base",
        "country": "IT",
        "operator": "IT",
        "type": "naval"
      },
      "geometry": {
        "type": "Point",
        "coordinates": [
          17.21,
          40.47
        ]
      }
    },
    {
      "type": "Feature",
      "properties": {
        "name": "Augusta Naval Base",
        "country": "IT",
        "operator": "IT",
        "type": "naval"
      },
      "geometry": {
        "type": "Point",
        "coordinates": [
          15.22,
          37.23
        ]
      }
    },
    {
      "type": "Feature",
      "properties": {
        "name": "AFM Luqa Barracks",
        "country": "MT",
        "operator": "MT",
        "type": "joint"
      },
      "geometry": {
        "type": "Point",
        "coordinates": [
          14.49,
          35.86
        ]
      }
    },
    {
      "type": "Feature",
      "properties": {
        "name": "AFM Maritime Squadron (Haywharf)",
        "country": "MT",
        "operator": "MT",
        "type": "naval"
      },
      "geometry": {
        "type": "Point",
        "coordinates": [
          14.52,
          35.89
        ]
      }
    },
    {
      "type": "Feature",
      "properties": {
        "name": "Dhekelia SBA",
        "country": "CY",
        "operator": "UK",
        "type": "army"
      },
      "geometry": {
        "type": "Point",
        "coordinates": [
          33.72,
          34.98
        ]
      }
    },
    {
      "type": "Feature",
      "properties": {
        "name": "Paphos AB",
        "country": "CY",
        "operator": "CY",
        "type": "air"
      },
      "geometry": {
        "type": "Point",
        "coordinates": [
          32.49,
          34.72
        ]
      }
    },
    {
      "type": "Feature",
      "properties": {
        "name": "Mari Naval Base",
        "country": "CY",
        "operator": "CY",
        "type": "naval"
      },
      "geometry": {
        "type": "Point",
        "coordinates": [
          33.3,
          34.72
        ]
      }
    },
    {
      "type": "Feature",
      "properties": {
        "name": "Larissa AB",
        "country": "GR",
        "operator": "GR",
        "type": "air"
      },
      "geometry": {
        "type": "Point",
        "coordinates": [
          22.44,
          39.65
        ]
      }
    },
    {
      "type": "Feature",
      "properties": {
        "name": "Araxos AB (NATO nuclear storage)",
        "country": "GR",
        "operator": "GR/NATO",
        "type": "air"
      },
      "geometry": {
        "type": "Point",
        "coordinates": [
          21.42,
          38.15
        ]
      }
    },
    {
      "type": "Feature",
      "properties": {
        "name": "Salamis Naval Base",
        "country": "GR",
        "operator": "GR",
        "type": "naval"
      },
      "geometry": {
        "type": "Point",
        "coordinates": [
          23.49,
          37.96
        ]
      }
    },
    {
      "type": "Feature",
      "properties": {
        "name": "Aktio AB",
        "country": "GR",
        "operator": "GR",
        "type": "air"
      },
      "geometry": {
        "type": "Point",
        "coordinates": [
          20.77,
          38.95
        ]
      }
    },
    {
      "type": "Feature",
      "properties": {
        "name": "Tanagra AB",
        "country": "GR",
        "operator": "GR",
        "type": "air"
      },
      "geometry": {
        "type": "Point",
        "coordinates": [
          23.56,
          38.34
        ]
      }
    },
    {
      "type": "Feature",
      "properties": {
        "name": "Alexandroupoli (NATO hub)",
        "country": "GR",
        "operator": "GR/NATO",
        "type": "joint"
      },
      "geometry": {
        "type": "Point",
        "coordinates": [
          25.87,
          40.85
        ]
      }
    },
    {
      "type": "Feature",
      "properties": {
        "name": "Bizerte Naval Base",
        "country": "TN",
        "operator": "TN",
        "type": "naval"
      },
      "geometry": {
        "type": "Point",
        "coordinates": [
          9.87,
          37.27
        ]
      }
    },
    {
      "type": "Feature",
      "properties": {
        "name": "Sidi Ahmed AB",
        "country": "TN",
        "operator": "TN",
        "type": "air"
      },
      "geometry": {
        "type": "Point",
        "coordinates": [
          9.79,
          37.25
        ]
      }
    },
    {
      "type": "Feature",
      "properties": {
        "name": "Sfax Military Base",
        "country": "TN",
        "operator": "TN",
        "type": "army"
      },
      "geometry": {
        "type": "Point",
        "coordinates": [
          10.76,
          34.74
        ]
      }
    },
    {
      "type": "Feature",
      "properties": {
        "name": "Erbil AB",
        "country": "IQ",
        "operator": "US/IQ",
        "type": "air"
      },
      "geometry": {
        "type": "Point",
        "coordinates": [
          44,
          36.24
        ]
      }
    },
    {
      "type": "Feature",
      "properties": {
        "name": "Kénitra AB",
        "country": "MA",
        "operator": "MA",
        "type": "air"
      },
      "geometry": {
        "type": "Point",
        "coordinates": [
          -6.6,
          34.3
        ]
      }
    },
    {
      "type": "Feature",
      "properties": {
        "name": "Mers El Kébir Naval Base",
        "country": "DZ",
        "operator": "DZ",
        "type": "naval"
      },
      "geometry": {
        "type": "Point",
        "coordinates": [
          -0.72,
          35.73
        ]
      }
    },
    {
      "type": "Feature",
      "properties": {
        "name": "Boufarik AB",
        "country": "DZ",
        "operator": "DZ",
        "type": "air"
      },
      "geometry": {
        "type": "Point",
        "coordinates": [
          2.88,
          36.55
        ]
      }
    },
    {
      "type": "Feature",
      "properties": {
        "name": "Łask AB",
        "country": "PL",
        "operator": "PL",
        "type": "air"
      },
      "geometry": {
        "type": "Point",
        "coordinates": [
          19.18,
          51.55
        ]
      }
    },
    {
      "type": "Feature",
      "properties": {
        "name": "Malbork AB",
        "country": "PL",
        "operator": "PL/NATO",
        "type": "air"
      },
      "geometry": {
        "type": "Point",
        "coordinates": [
          19.13,
          54.03
        ]
      }
    },
    {
      "type": "Feature",
      "properties": {
        "name": "Orzysz (NATO battlegroup)",
        "country": "PL",
        "operator": "PL/US",
        "type": "army"
      },
      "geometry": {
        "type": "Point",
        "coordinates": [
          21.95,
          53.81
        ]
      }
    },
    {
      "type": "Feature",
      "properties": {
        "name": "Pápa AB (NATO SAC)",
        "country": "HU",
        "operator": "NATO",
        "type": "air"
      },
      "geometry": {
        "type": "Point",
        "coordinates": [
          17.5,
          47.36
        ]
      }
    },
    {
      "type": "Feature",
      "properties": {
        "name": "Taszár AB",
        "country": "HU",
        "operator": "HU",
        "type": "air"
      },
      "geometry": {
        "type": "Point",
        "coordinates": [
          17.92,
          46.39
        ]
      }
    },
    {
      "type": "Feature",
      "properties": {
        "name": "Kecskemét AB",
        "country": "HU",
        "operator": "HU",
        "type": "air"
      },
      "geometry": {
        "type": "Point",
        "coordinates": [
          19.74,
          46.92
        ]
      }
    },
    {
      "type": "Feature",
      "properties": {
        "name": "Čáslav AB",
        "country": "CZ",
        "operator": "CZ",
        "type": "air"
      },
      "geometry": {
        "type": "Point",
        "coordinates": [
          15.38,
          49.94
        ]
      }
    },
    {
      "type": "Feature",
      "properties": {
        "name": "Náměšť AB",
        "country": "CZ",
        "operator": "CZ",
        "type": "air"
      },
      "geometry": {
        "type": "Point",
        "coordinates": [
          16.12,
          49.17
        ]
      }
    },
    {
      "type": "Feature",
      "properties": {
        "name": "Sliač AB",
        "country": "SK",
        "operator": "SK",
        "type": "air"
      },
      "geometry": {
        "type": "Point",
        "coordinates": [
          19.13,
          48.64
        ]
      }
    },
    {
      "type": "Feature",
      "properties": {
        "name": "Graf Ignatievo AB",
        "country": "BG",
        "operator": "BG",
        "type": "air"
      },
      "geometry": {
        "type": "Point",
        "coordinates": [
          24.71,
          42.29
        ]
      }
    },
    {
      "type": "Feature",
      "properties": {
        "name": "Novo Selo Training Area",
        "country": "BG",
        "operator": "US/BG",
        "type": "army"
      },
      "geometry": {
        "type": "Point",
        "coordinates": [
          25.9,
          42.08
        ]
      }
    },
    {
      "type": "Feature",
      "properties": {
        "name": "Bezmer AB",
        "country": "BG",
        "operator": "BG/US",
        "type": "air"
      },
      "geometry": {
        "type": "Point",
        "coordinates": [
          26.35,
          42.46
        ]
      }
    },
    {
      "type": "Feature",
      "properties": {
        "name": "Câmpia Turzii AB",
        "country": "RO",
        "operator": "RO/US",
        "type": "air"
      },
      "geometry": {
        "type": "Point",
        "coordinates": [
          23.89,
          46.5
        ]
      }
    },
    {
      "type": "Feature",
      "properties": {
        "name": "Ādaži Military Base",
        "country": "LV",
        "operator": "LV/NATO",
        "type": "army"
      },
      "geometry": {
        "type": "Point",
        "coordinates": [
          24.32,
          57.08
        ]
      }
    },
    {
      "type": "Feature",
      "properties": {
        "name": "Lielvārde AB",
        "country": "LV",
        "operator": "LV/NATO",
        "type": "air"
      },
      "geometry": {
        "type": "Point",
        "coordinates": [
          24.81,
          56.77
        ]
      }
    },
    {
      "type": "Feature",
      "properties": {
        "name": "Rukla (NATO battlegroup)",
        "country": "LT",
        "operator": "LT/DE",
        "type": "army"
      },
      "geometry": {
        "type": "Point",
        "coordinates": [
          24.2,
          55.07
        ]
      }
    },
    {
      "type": "Feature",
      "properties": {
        "name": "Tapa (NATO battlegroup)",
        "country": "EE",
        "operator": "EE/UK",
        "type": "army"
      },
      "geometry": {
        "type": "Point",
        "coordinates": [
          25.96,
          59.26
        ]
      }
    },
    {
      "type": "Feature",
      "properties": {
        "name": "Rovaniemi AB",
        "country": "FI",
        "operator": "FI",
        "type": "air"
      },
      "geometry": {
        "type": "Point",
        "coordinates": [
          25.83,
          66.56
        ]
      }
    },
    {
      "type": "Feature",
      "properties": {
        "name": "Kuopio-Rissala AB",
        "country": "FI",
        "operator": "FI",
        "type": "air"
      },
      "geometry": {
        "type": "Point",
        "coordinates": [
          27.8,
          63.05
        ]
      }
    },
    {
      "type": "Feature",
      "properties": {
        "name": "Upinniemi Naval Base",
        "country": "FI",
        "operator": "FI",
        "type": "naval"
      },
      "geometry": {
        "type": "Point",
        "coordinates": [
          24.3,
          60.1
        ]
      }
    },
    {
      "type": "Feature",
      "properties": {
        "name": "Karlsborg Fortress",
        "country": "SE",
        "operator": "SE",
        "type": "army"
      },
      "geometry": {
        "type": "Point",
        "coordinates": [
          14.53,
          58.54
        ]
      }
    },
    {
      "type": "Feature",
      "properties": {
        "name": "Luleå-Kallax AB",
        "country": "SE",
        "operator": "SE",
        "type": "air"
      },
      "geometry": {
        "type": "Point",
        "coordinates": [
          22.12,
          65.55
        ]
      }
    },
    {
      "type": "Feature",
      "properties": {
        "name": "Gotland (garrison)",
        "country": "SE",
        "operator": "SE",
        "type": "army"
      },
      "geometry": {
        "type": "Point",
        "coordinates": [
          18.3,
          57.63
        ]
      }
    },
    {
      "type": "Feature",
      "properties": {
        "name": "Berga Naval Base",
        "country": "SE",
        "operator": "SE",
        "type": "naval"
      },
      "geometry": {
        "type": "Point",
        "coordinates": [
          18.25,
          59.23
        ]
      }
    },
    {
      "type": "Feature",
      "properties": {
        "name": "Karup AB (Fighter Wing)",
        "country": "DK",
        "operator": "DK",
        "type": "air"
      },
      "geometry": {
        "type": "Point",
        "coordinates": [
          9.12,
          56.3
        ]
      }
    },
    {
      "type": "Feature",
      "properties": {
        "name": "Frederikshavn Naval Base",
        "country": "DK",
        "operator": "DK",
        "type": "naval"
      },
      "geometry": {
        "type": "Point",
        "coordinates": [
          10.53,
          57.43
        ]
      }
    },
    {
      "type": "Feature",
      "properties": {
        "name": "Ørland AB (F-35)",
        "country": "NO",
        "operator": "NO",
        "type": "air"
      },
      "geometry": {
        "type": "Point",
        "coordinates": [
          9.6,
          63.7
        ]
      }
    },
    {
      "type": "Feature",
      "properties": {
        "name": "Haakonsvern Naval Base",
        "country": "NO",
        "operator": "NO",
        "type": "naval"
      },
      "geometry": {
        "type": "Point",
        "coordinates": [
          5.26,
          60.33
        ]
      }
    },
    {
      "type": "Feature",
      "properties": {
        "name": "Bardufoss AB",
        "country": "NO",
        "operator": "NO",
        "type": "air"
      },
      "geometry": {
        "type": "Point",
        "coordinates": [
          18.54,
          69.06
        ]
      }
    },
    {
      "type": "Feature",
      "properties": {
        "name": "Morón AB",
        "country": "ES",
        "operator": "US/ES",
        "type": "air"
      },
      "geometry": {
        "type": "Point",
        "coordinates": [
          -5.62,
          37.17
        ]
      }
    },
    {
      "type": "Feature",
      "properties": {
        "name": "Zaragoza AB",
        "country": "ES",
        "operator": "ES",
        "type": "air"
      },
      "geometry": {
        "type": "Point",
        "coordinates": [
          -1.04,
          41.67
        ]
      }
    },
    {
      "type": "Feature",
      "properties": {
        "name": "Ferrol Naval Base",
        "country": "ES",
        "operator": "ES",
        "type": "naval"
      },
      "geometry": {
        "type": "Point",
        "coordinates": [
          -8.25,
          43.47
        ]
      }
    },
    {
      "type": "Feature",
      "properties": {
        "name": "Lisbon Naval Base",
        "country": "PT",
        "operator": "PT",
        "type": "naval"
      },
      "geometry": {
        "type": "Point",
        "coordinates": [
          -9.15,
          38.69
        ]
      }
    },
    {
      "type": "Feature",
      "properties": {
        "name": "Pleso AB (Zagreb)",
        "country": "HR",
        "operator": "HR",
        "type": "air"
      },
      "geometry": {
        "type": "Point",
        "coordinates": [
          16.07,
          45.74
        ]
      }
    },
    {
      "type": "Feature",
      "properties": {
        "name": "Batajnica AB",
        "country": "RS",
        "operator": "RS",
        "type": "air"
      },
      "geometry": {
        "type": "Point",
        "coordinates": [
          20.26,
          44.93
        ]
      }
    },
    {
      "type": "Feature",
      "properties": {
        "name": "Spangdahlem AB",
        "country": "DE",
        "operator": "US",
        "type": "air"
      },
      "geometry": {
        "type": "Point",
        "coordinates": [
          6.69,
          49.97
        ]
      }
    },
    {
      "type": "Feature",
      "properties": {
        "name": "Grafenwöhr Training Area",
        "country": "DE",
        "operator": "US",
        "type": "army"
      },
      "geometry": {
        "type": "Point",
        "coordinates": [
          11.92,
          49.69
        ]
      }
    },
    {
      "type": "Feature",
      "properties": {
        "name": "Wilhelmshaven Naval Base",
        "country": "DE",
        "operator": "DE",
        "type": "naval"
      },
      "geometry": {
        "type": "Point",
        "coordinates": [
          8.14,
          53.53
        ]
      }
    },
    {
      "type": "Feature",
      "properties": {
        "name": "Starokostiantyniv AB",
        "country": "UA",
        "operator": "UA",
        "type": "air"
      },
      "geometry": {
        "type": "Point",
        "coordinates": [
          27.2,
          49.75
        ]
      }
    },
    {
      "type": "Feature",
      "properties": {
        "name": "Odesa Naval Base",
        "country": "UA",
        "operator": "UA",
        "type": "naval"
      },
      "geometry": {
        "type": "Point",
        "coordinates": [
          30.75,
          46.48
        ]
      }
    },
    {
      "type": "Feature",
      "geometry": {
        "type": "Point",
        "coordinates": [
          19.5987,
          41.895199
        ]
      },
      "properties": {
        "name": "Gjadër Air Base",
        "country": "AL",
        "type": "air_base",
        "operator": "Unknown",
        "source": "ourairports",
        "confidence": 0.58,
        "inferred_from": "name_or_keywords",
        "airport_type": "closed",
        "region_hint": "Europe"
      }
    },
    {
      "type": "Feature",
      "geometry": {
        "type": "Point",
        "coordinates": [
          19.474199,
          40.476101
        ]
      },
      "properties": {
        "name": "Vlorë Air Base",
        "country": "AL",
        "type": "air_base",
        "operator": "Unknown",
        "source": "ourairports",
        "confidence": 0.58,
        "inferred_from": "name_or_keywords",
        "airport_type": "closed",
        "region_hint": "Europe"
      }
    },
    {
      "type": "Feature",
      "geometry": {
        "type": "Point",
        "coordinates": [
          12.981666564941,
          47.797500610352
        ]
      },
      "properties": {
        "name": "Schwarzenbergkaserne Military Heliport",
        "country": "AT",
        "type": "air_base",
        "operator": "Unknown",
        "source": "ourairports",
        "confidence": 0.58,
        "inferred_from": "name_or_keywords",
        "airport_type": "heliport",
        "region_hint": "Europe"
      }
    },
    {
      "type": "Feature",
      "geometry": {
        "type": "Point",
        "coordinates": [
          11.697559,
          47.334998
        ]
      },
      "properties": {
        "name": "Schwaz Military Heliport",
        "country": "AT",
        "type": "air_base",
        "operator": "Unknown",
        "source": "ourairports",
        "confidence": 0.58,
        "inferred_from": "name_or_keywords",
        "airport_type": "heliport",
        "region_hint": "Europe"
      }
    },
    {
      "type": "Feature",
      "geometry": {
        "type": "Point",
        "coordinates": [
          15.869373,
          44.980871
        ]
      },
      "properties": {
        "name": "Ćoralići Air Base",
        "country": "BA",
        "type": "air_base",
        "operator": "Unknown",
        "source": "ourairports",
        "confidence": 0.58,
        "inferred_from": "name_or_keywords",
        "airport_type": "closed",
        "region_hint": "Europe"
      }
    },
    {
      "type": "Feature",
      "geometry": {
        "type": "Point",
        "coordinates": [
          16.813588,
          44.083894
        ]
      },
      "properties": {
        "name": "Glamoč Air Base",
        "country": "BA",
        "type": "air_base",
        "operator": "Unknown",
        "source": "ourairports",
        "confidence": 0.58,
        "inferred_from": "name_or_keywords",
        "airport_type": "closed",
        "region_hint": "Europe"
      }
    },
    {
      "type": "Feature",
      "geometry": {
        "type": "Point",
        "coordinates": [
          0.378611,
          52.051389
        ]
      },
      "properties": {
        "name": "RAF Castle Camps",
        "country": "GB",
        "type": "air_base",
        "operator": "Unknown",
        "source": "ourairports",
        "confidence": 0.58,
        "inferred_from": "name_or_keywords",
        "airport_type": "closed",
        "region_hint": "Europe"
      }
    },
    {
      "type": "Feature",
      "geometry": {
        "type": "Point",
        "coordinates": [
          4.38936,
          50.90527
        ]
      },
      "properties": {
        "name": "Queen Astrid Military Hospital Heliport",
        "country": "BE",
        "type": "air_base",
        "operator": "Unknown",
        "source": "ourairports",
        "confidence": 0.58,
        "inferred_from": "name_or_keywords",
        "airport_type": "heliport",
        "region_hint": "Europe"
      }
    },
    {
      "type": "Feature",
      "geometry": {
        "type": "Point",
        "coordinates": [
          6.183014,
          50.484818
        ]
      },
      "properties": {
        "name": "Elsenborn Air Base",
        "country": "BE",
        "type": "air_base",
        "operator": "Unknown",
        "source": "ourairports",
        "confidence": 0.58,
        "inferred_from": "name_or_keywords",
        "airport_type": "small_airport",
        "region_hint": "Europe"
      }
    },
    {
      "type": "Feature",
      "geometry": {
        "type": "Point",
        "coordinates": [
          25.5898,
          41.976398
        ]
      },
      "properties": {
        "name": "Uzundzhovo Air Base",
        "country": "BG",
        "type": "air_base",
        "operator": "Unknown",
        "source": "ourairports",
        "confidence": 0.58,
        "inferred_from": "name_or_keywords",
        "airport_type": "closed",
        "region_hint": "Europe"
      }
    },
    {
      "type": "Feature",
      "geometry": {
        "type": "Point",
        "coordinates": [
          23.272499,
          43.5443
        ]
      },
      "properties": {
        "name": "Gabrovnitsa Air Base",
        "country": "BG",
        "type": "air_base",
        "operator": "Unknown",
        "source": "ourairports",
        "confidence": 0.58,
        "inferred_from": "name_or_keywords",
        "airport_type": "closed",
        "region_hint": "Europe"
      }
    },
    {
      "type": "Feature",
      "geometry": {
        "type": "Point",
        "coordinates": [
          23.300114,
          42.811795
        ]
      },
      "properties": {
        "name": "Dobroslavtsi Air Base",
        "country": "BG",
        "type": "air_base",
        "operator": "Unknown",
        "source": "ourairports",
        "confidence": 0.58,
        "inferred_from": "name_or_keywords",
        "airport_type": "closed",
        "region_hint": "Europe"
      }
    },
    {
      "type": "Feature",
      "geometry": {
        "type": "Point",
        "coordinates": [
          23.246098,
          42.311254
        ]
      },
      "properties": {
        "name": "Stanke Dimitrov Air Base",
        "country": "BG",
        "type": "air_base",
        "operator": "Unknown",
        "source": "ourairports",
        "confidence": 0.58,
        "inferred_from": "name_or_keywords",
        "airport_type": "closed",
        "region_hint": "Europe"
      }
    },
    {
      "type": "Feature",
      "geometry": {
        "type": "Point",
        "coordinates": [
          24.992901,
          42.114101
        ]
      },
      "properties": {
        "name": "Cheshnegirovo Air Base",
        "country": "BG",
        "type": "air_base",
        "operator": "Unknown",
        "source": "ourairports",
        "confidence": 0.58,
        "inferred_from": "name_or_keywords",
        "airport_type": "closed",
        "region_hint": "Europe"
      }
    },
    {
      "type": "Feature",
      "geometry": {
        "type": "Point",
        "coordinates": [
          26.309205,
          41.840185
        ]
      },
      "properties": {
        "name": "Mustrak Air Base",
        "country": "BG",
        "type": "air_base",
        "operator": "Unknown",
        "source": "ourairports",
        "confidence": 0.58,
        "inferred_from": "name_or_keywords",
        "airport_type": "closed",
        "region_hint": "Europe"
      }
    },
    {
      "type": "Feature",
      "geometry": {
        "type": "Point",
        "coordinates": [
          27.8365,
          43.6096
        ]
      },
      "properties": {
        "name": "Dobrich Air Base",
        "country": "BG",
        "type": "air_base",
        "operator": "Unknown",
        "source": "ourairports",
        "confidence": 0.58,
        "inferred_from": "name_or_keywords",
        "airport_type": "closed",
        "region_hint": "Europe"
      }
    },
    {
      "type": "Feature",
      "geometry": {
        "type": "Point",
        "coordinates": [
          23.216229,
          41.448806
        ]
      },
      "properties": {
        "name": "Petrich Air Base",
        "country": "BG",
        "type": "air_base",
        "operator": "Unknown",
        "source": "ourairports",
        "confidence": 0.58,
        "inferred_from": "name_or_keywords",
        "airport_type": "closed",
        "region_hint": "Europe"
      }
    },
    {
      "type": "Feature",
      "geometry": {
        "type": "Point",
        "coordinates": [
          27.178801,
          44.055199
        ]
      },
      "properties": {
        "name": "Silistra Polkovnik Lambrinovo Air Base",
        "country": "BG",
        "type": "air_base",
        "operator": "Unknown",
        "source": "ourairports",
        "confidence": 0.58,
        "inferred_from": "name_or_keywords",
        "airport_type": "closed",
        "region_hint": "Europe"
      }
    },
    {
      "type": "Feature",
      "geometry": {
        "type": "Point",
        "coordinates": [
          27.272322,
          42.526788
        ]
      },
      "properties": {
        "name": "Ravnets Air Base",
        "country": "BG",
        "type": "air_base",
        "operator": "Unknown",
        "source": "ourairports",
        "confidence": 0.58,
        "inferred_from": "name_or_keywords",
        "airport_type": "closed",
        "region_hint": "Europe"
      }
    },
    {
      "type": "Feature",
      "geometry": {
        "type": "Point",
        "coordinates": [
          26.3522,
          42.454899
        ]
      },
      "properties": {
        "name": "Bezmer Air Base",
        "country": "BG",
        "type": "air_base",
        "operator": "Unknown",
        "source": "ourairports",
        "confidence": 0.58,
        "inferred_from": "name_or_keywords",
        "airport_type": "medium_airport",
        "region_hint": "Europe"
      }
    },
    {
      "type": "Feature",
      "geometry": {
        "type": "Point",
        "coordinates": [
          30.2967,
          54.439999
        ]
      },
      "properties": {
        "name": "Orsha Airport - Balbasovo Air Base",
        "country": "BY",
        "type": "air_base",
        "operator": "Unknown",
        "source": "ourairports",
        "confidence": 0.58,
        "inferred_from": "name_or_keywords",
        "airport_type": "medium_airport",
        "region_hint": "Europe"
      }
    },
    {
      "type": "Feature",
      "geometry": {
        "type": "Point",
        "coordinates": [
          29.376699,
          54.375
        ]
      },
      "properties": {
        "name": "Bobr Air Base",
        "country": "BY",
        "type": "air_base",
        "operator": "Unknown",
        "source": "ourairports",
        "confidence": 0.58,
        "inferred_from": "name_or_keywords",
        "airport_type": "closed",
        "region_hint": "Europe"
      }
    },
    {
      "type": "Feature",
      "geometry": {
        "type": "Point",
        "coordinates": [
          29.360001,
          52.278301
        ]
      },
      "properties": {
        "name": "Bobrovichi Air Base",
        "country": "BY",
        "type": "air_base",
        "operator": "Unknown",
        "source": "ourairports",
        "confidence": 0.58,
        "inferred_from": "name_or_keywords",
        "airport_type": "closed",
        "region_hint": "Europe"
      }
    },
    {
      "type": "Feature",
      "geometry": {
        "type": "Point",
        "coordinates": [
          28.678301,
          55.608299
        ]
      },
      "properties": {
        "name": "Borovtsy Air Base",
        "country": "BY",
        "type": "air_base",
        "operator": "Unknown",
        "source": "ourairports",
        "confidence": 0.58,
        "inferred_from": "name_or_keywords",
        "airport_type": "small_airport",
        "region_hint": "Europe"
      }
    },
    {
      "type": "Feature",
      "geometry": {
        "type": "Point",
        "coordinates": [
          24.884001,
          52.556999
        ]
      },
      "properties": {
        "name": "Osovtsy Air Base",
        "country": "BY",
        "type": "air_base",
        "operator": "Unknown",
        "source": "ourairports",
        "confidence": 0.58,
        "inferred_from": "name_or_keywords",
        "airport_type": "medium_airport",
        "region_hint": "Europe"
      }
    },
    {
      "type": "Feature",
      "geometry": {
        "type": "Point",
        "coordinates": [
          30.200000762939453,
          53.52000045776367
        ]
      },
      "properties": {
        "name": "Bykhau Air Base",
        "country": "BY",
        "type": "air_base",
        "operator": "Unknown",
        "source": "ourairports",
        "confidence": 0.58,
        "inferred_from": "name_or_keywords",
        "airport_type": "closed",
        "region_hint": "Europe"
      }
    },
    {
      "type": "Feature",
      "geometry": {
        "type": "Point",
        "coordinates": [
          25.377,
          53.877
        ]
      },
      "properties": {
        "name": "Lida Air Base",
        "country": "BY",
        "type": "air_base",
        "operator": "Unknown",
        "source": "ourairports",
        "confidence": 0.58,
        "inferred_from": "name_or_keywords",
        "airport_type": "small_airport",
        "region_hint": "Europe"
      }
    },
    {
      "type": "Feature",
      "geometry": {
        "type": "Point",
        "coordinates": [
          27.708775,
          53.913545
        ]
      },
      "properties": {
        "name": "Lipki Air Base",
        "country": "BY",
        "type": "air_base",
        "operator": "Unknown",
        "source": "ourairports",
        "confidence": 0.58,
        "inferred_from": "name_or_keywords",
        "airport_type": "small_airport",
        "region_hint": "Europe"
      }
    },
    {
      "type": "Feature",
      "geometry": {
        "type": "Point",
        "coordinates": [
          31.91705,
          53.73478
        ]
      },
      "properties": {
        "name": "Krichev Air Base",
        "country": "BY",
        "type": "air_base",
        "operator": "Unknown",
        "source": "ourairports",
        "confidence": 0.58,
        "inferred_from": "name_or_keywords",
        "airport_type": "closed",
        "region_hint": "Europe"
      }
    },
    {
      "type": "Feature",
      "geometry": {
        "type": "Point",
        "coordinates": [
          24.346667,
          52.23833
        ]
      },
      "properties": {
        "name": "Kobryn Airbase",
        "country": "BY",
        "type": "air_base",
        "operator": "Unknown",
        "source": "ourairports",
        "confidence": 0.58,
        "inferred_from": "name_or_keywords",
        "airport_type": "closed",
        "region_hint": "Europe"
      }
    },
    {
      "type": "Feature",
      "geometry": {
        "type": "Point",
        "coordinates": [
          26.7617,
          55.116699
        ]
      },
      "properties": {
        "name": "Postavy Air Base",
        "country": "BY",
        "type": "air_base",
        "operator": "Unknown",
        "source": "ourairports",
        "confidence": 0.58,
        "inferred_from": "name_or_keywords",
        "airport_type": "closed",
        "region_hint": "Europe"
      }
    },
    {
      "type": "Feature",
      "geometry": {
        "type": "Point",
        "coordinates": [
          26.871700286865234,
          54.24829864501953
        ]
      },
      "properties": {
        "name": "Maladzyechna Air Base",
        "country": "BY",
        "type": "air_base",
        "operator": "Unknown",
        "source": "ourairports",
        "confidence": 0.58,
        "inferred_from": "name_or_keywords",
        "airport_type": "closed",
        "region_hint": "Europe"
      }
    },
    {
      "type": "Feature",
      "geometry": {
        "type": "Point",
        "coordinates": [
          30.2467,
          55.255001
        ]
      },
      "properties": {
        "name": "Zhurzhevo Air Base",
        "country": "BY",
        "type": "air_base",
        "operator": "Unknown",
        "source": "ourairports",
        "confidence": 0.58,
        "inferred_from": "name_or_keywords",
        "airport_type": "closed",
        "region_hint": "Europe"
      }
    },
    {
      "type": "Feature",
      "geometry": {
        "type": "Point",
        "coordinates": [
          31.163299560546875,
          52.30500030517578
        ]
      },
      "properties": {
        "name": "Pribytki Air Base",
        "country": "BY",
        "type": "air_base",
        "operator": "Unknown",
        "source": "ourairports",
        "confidence": 0.58,
        "inferred_from": "name_or_keywords",
        "airport_type": "small_airport",
        "region_hint": "Europe"
      }
    },
    {
      "type": "Feature",
      "geometry": {
        "type": "Point",
        "coordinates": [
          26.306699752807617,
          54.52330017089844
        ]
      },
      "properties": {
        "name": "Smarhon Air Base",
        "country": "BY",
        "type": "air_base",
        "operator": "Unknown",
        "source": "ourairports",
        "confidence": 0.58,
        "inferred_from": "name_or_keywords",
        "airport_type": "closed",
        "region_hint": "Europe"
      }
    },
    {
      "type": "Feature",
      "geometry": {
        "type": "Point",
        "coordinates": [
          26.774629,
          52.275673
        ]
      },
      "properties": {
        "name": "Luninets Air Base",
        "country": "BY",
        "type": "air_base",
        "operator": "Unknown",
        "source": "ourairports",
        "confidence": 0.58,
        "inferred_from": "name_or_keywords",
        "airport_type": "small_airport",
        "region_hint": "Europe"
      }
    },
    {
      "type": "Feature",
      "geometry": {
        "type": "Point",
        "coordinates": [
          24.369,
          53.303
        ]
      },
      "properties": {
        "name": "Ross Air Base",
        "country": "BY",
        "type": "air_base",
        "operator": "Unknown",
        "source": "ourairports",
        "confidence": 0.58,
        "inferred_from": "name_or_keywords",
        "airport_type": "closed",
        "region_hint": "Europe"
      }
    },
    {
      "type": "Feature",
      "geometry": {
        "type": "Point",
        "coordinates": [
          8.299415,
          46.50193
        ]
      },
      "properties": {
        "name": "Ulrichen Air Base",
        "country": "CH",
        "type": "air_base",
        "operator": "Unknown",
        "source": "ourairports",
        "confidence": 0.58,
        "inferred_from": "name_or_keywords",
        "airport_type": "closed",
        "region_hint": "Europe"
      }
    },
    {
      "type": "Feature",
      "geometry": {
        "type": "Point",
        "coordinates": [
          7.87908,
          46.676601
        ]
      },
      "properties": {
        "name": "Interlaken Air Base",
        "country": "CH",
        "type": "air_base",
        "operator": "Unknown",
        "source": "ourairports",
        "confidence": 0.58,
        "inferred_from": "name_or_keywords",
        "airport_type": "closed",
        "region_hint": "Europe"
      }
    },
    {
      "type": "Feature",
      "geometry": {
        "type": "Point",
        "coordinates": [
          7.712708,
          46.304339
        ]
      },
      "properties": {
        "name": "Turtmann Air Base",
        "country": "CH",
        "type": "air_base",
        "operator": "Unknown",
        "source": "ourairports",
        "confidence": 0.58,
        "inferred_from": "name_or_keywords",
        "airport_type": "closed",
        "region_hint": "Europe"
      }
    },
    {
      "type": "Feature",
      "geometry": {
        "type": "Point",
        "coordinates": [
          33.267503,
          35.276018
        ]
      },
      "properties": {
        "name": "Pınarbaşı Air Base",
        "country": "CY",
        "type": "air_base",
        "operator": "Unknown",
        "source": "ourairports",
        "confidence": 0.58,
        "inferred_from": "name_or_keywords",
        "airport_type": "small_airport",
        "region_hint": "Europe"
      }
    },
    {
      "type": "Feature",
      "geometry": {
        "type": "Point",
        "coordinates": [
          33.715851,
          35.014275
        ]
      },
      "properties": {
        "name": "Kingsfield Air Base",
        "country": "CY",
        "type": "air_base",
        "operator": "Unknown",
        "source": "ourairports",
        "confidence": 0.58,
        "inferred_from": "name_or_keywords",
        "airport_type": "small_airport",
        "region_hint": "Europe"
      }
    },
    {
      "type": "Feature",
      "geometry": {
        "type": "Point",
        "coordinates": [
          33.900432,
          35.083178
        ]
      },
      "properties": {
        "name": "RAF Ayios Nikolaos Air Base",
        "country": "CY",
        "type": "air_base",
        "operator": "Unknown",
        "source": "ourairports",
        "confidence": 0.58,
        "inferred_from": "name_or_keywords",
        "airport_type": "closed",
        "region_hint": "Europe"
      }
    },
    {
      "type": "Feature",
      "geometry": {
        "type": "Point",
        "coordinates": [
          33.749133,
          34.994262
        ]
      },
      "properties": {
        "name": "RAF Dhekelia Airfield",
        "country": "CY",
        "type": "air_base",
        "operator": "Unknown",
        "source": "ourairports",
        "confidence": 0.58,
        "inferred_from": "name_or_keywords",
        "airport_type": "small_airport",
        "region_hint": "Europe"
      }
    },
    {
      "type": "Feature",
      "geometry": {
        "type": "Point",
        "coordinates": [
          32.880549,
          34.917178
        ]
      },
      "properties": {
        "name": "RAF Troodos Helipad",
        "country": "CY",
        "type": "air_base",
        "operator": "Unknown",
        "source": "ourairports",
        "confidence": 0.58,
        "inferred_from": "name_or_keywords",
        "airport_type": "heliport",
        "region_hint": "Europe"
      }
    },
    {
      "type": "Feature",
      "geometry": {
        "type": "Point",
        "coordinates": [
          14.363104,
          50.088867
        ]
      },
      "properties": {
        "name": "Střešovice Central Military Hospital Heliport 1",
        "country": "CZ",
        "type": "air_base",
        "operator": "Unknown",
        "source": "ourairports",
        "confidence": 0.58,
        "inferred_from": "name_or_keywords",
        "airport_type": "heliport",
        "region_hint": "Europe"
      }
    },
    {
      "type": "Feature",
      "geometry": {
        "type": "Point",
        "coordinates": [
          14.922222,
          50.236111
        ]
      },
      "properties": {
        "name": "Milovice Air Base",
        "country": "CZ",
        "type": "air_base",
        "operator": "Unknown",
        "source": "ourairports",
        "confidence": 0.58,
        "inferred_from": "name_or_keywords",
        "airport_type": "closed",
        "region_hint": "Europe"
      }
    },
    {
      "type": "Feature",
      "geometry": {
        "type": "Point",
        "coordinates": [
          14.993889,
          49.417778
        ]
      },
      "properties": {
        "name": "Kámen Air Base",
        "country": "CZ",
        "type": "air_base",
        "operator": "Unknown",
        "source": "ourairports",
        "confidence": 0.58,
        "inferred_from": "name_or_keywords",
        "airport_type": "closed",
        "region_hint": "Europe"
      }
    },
    {
      "type": "Feature",
      "geometry": {
        "type": "Point",
        "coordinates": [
          14.361362,
          50.088881
        ]
      },
      "properties": {
        "name": "Střešovice Central Military Hospital Heliport 2",
        "country": "CZ",
        "type": "air_base",
        "operator": "Unknown",
        "source": "ourairports",
        "confidence": 0.58,
        "inferred_from": "name_or_keywords",
        "airport_type": "heliport",
        "region_hint": "Europe"
      }
    },
    {
      "type": "Feature",
      "geometry": {
        "type": "Point",
        "coordinates": [
          16.6608,
          49.1775016784
        ]
      },
      "properties": {
        "name": "Černovice Air Base",
        "country": "CZ",
        "type": "air_base",
        "operator": "Unknown",
        "source": "ourairports",
        "confidence": 0.58,
        "inferred_from": "name_or_keywords",
        "airport_type": "closed",
        "region_hint": "Europe"
      }
    },
    {
      "type": "Feature",
      "geometry": {
        "type": "Point",
        "coordinates": [
          14.6217,
          49.437801
        ]
      },
      "properties": {
        "name": "Tábor Všechov Air Base",
        "country": "CZ",
        "type": "air_base",
        "operator": "Unknown",
        "source": "ourairports",
        "confidence": 0.58,
        "inferred_from": "name_or_keywords",
        "airport_type": "closed",
        "region_hint": "Europe"
      }
    },
    {
      "type": "Feature",
      "geometry": {
        "type": "Point",
        "coordinates": [
          14.5018,
          49.2736
        ]
      },
      "properties": {
        "name": "Bechyně Air Base",
        "country": "CZ",
        "type": "air_base",
        "operator": "Unknown",
        "source": "ourairports",
        "confidence": 0.58,
        "inferred_from": "name_or_keywords",
        "airport_type": "closed",
        "region_hint": "Europe"
      }
    },
    {
      "type": "Feature",
      "geometry": {
        "type": "Point",
        "coordinates": [
          13.797095,
          49.431173
        ]
      },
      "properties": {
        "name": "Blátna Air Base",
        "country": "CZ",
        "type": "air_base",
        "operator": "Unknown",
        "source": "ourairports",
        "confidence": 0.58,
        "inferred_from": "name_or_keywords",
        "airport_type": "closed",
        "region_hint": "Europe"
      }
    },
    {
      "type": "Feature",
      "geometry": {
        "type": "Point",
        "coordinates": [
          2.87611,
          36.545799
        ]
      },
      "properties": {
        "name": "Boufarik Air Base",
        "country": "DZ",
        "type": "air_base",
        "operator": "Unknown",
        "source": "ourairports",
        "confidence": 0.58,
        "inferred_from": "name_or_keywords",
        "airport_type": "medium_airport",
        "region_hint": "Europe"
      }
    },
    {
      "type": "Feature",
      "geometry": {
        "type": "Point",
        "coordinates": [
          7.267742,
          35.874356
        ]
      },
      "properties": {
        "name": "Oum El Bouaghi Air Base",
        "country": "DZ",
        "type": "air_base",
        "operator": "Unknown",
        "source": "ourairports",
        "confidence": 0.58,
        "inferred_from": "name_or_keywords",
        "airport_type": "small_airport",
        "region_hint": "Europe"
      }
    },
    {
      "type": "Feature",
      "geometry": {
        "type": "Point",
        "coordinates": [
          -0.805389,
          35.735401
        ]
      },
      "properties": {
        "name": "Bousfer Air Base",
        "country": "DZ",
        "type": "air_base",
        "operator": "Unknown",
        "source": "ourairports",
        "confidence": 0.58,
        "inferred_from": "name_or_keywords",
        "airport_type": "small_airport",
        "region_hint": "Europe"
      }
    },
    {
      "type": "Feature",
      "geometry": {
        "type": "Point",
        "coordinates": [
          13.305817,
          52.136861
        ]
      },
      "properties": {
        "name": "Sperenberg Air Base",
        "country": "DE",
        "type": "air_base",
        "operator": "Unknown",
        "source": "ourairports",
        "confidence": 0.58,
        "inferred_from": "name_or_keywords",
        "airport_type": "closed",
        "region_hint": "Europe"
      }
    },
    {
      "type": "Feature",
      "geometry": {
        "type": "Point",
        "coordinates": [
          12.524,
          53.201
        ]
      },
      "properties": {
        "name": "Wittstock Air Base",
        "country": "DE",
        "type": "air_base",
        "operator": "Unknown",
        "source": "ourairports",
        "confidence": 0.58,
        "inferred_from": "name_or_keywords",
        "airport_type": "closed",
        "region_hint": "Europe"
      }
    },
    {
      "type": "Feature",
      "geometry": {
        "type": "Point",
        "coordinates": [
          11.916111,
          49.708056
        ]
      },
      "properties": {
        "name": "Grafenwöhr Medevac Helipad",
        "country": "DE",
        "type": "air_base",
        "operator": "Unknown",
        "source": "ourairports",
        "confidence": 0.58,
        "inferred_from": "name_or_keywords",
        "airport_type": "heliport",
        "region_hint": "Europe"
      }
    },
    {
      "type": "Feature",
      "geometry": {
        "type": "Point",
        "coordinates": [
          10.6143,
          47.8617
        ]
      },
      "properties": {
        "name": "Kaufbeuren Air Base",
        "country": "DE",
        "type": "air_base",
        "operator": "Unknown",
        "source": "ourairports",
        "confidence": 0.58,
        "inferred_from": "name_or_keywords",
        "airport_type": "small_airport",
        "region_hint": "Europe"
      }
    },
    {
      "type": "Feature",
      "geometry": {
        "type": "Point",
        "coordinates": [
          12.656439,
          51.328383
        ]
      },
      "properties": {
        "name": "Brandis Airbase",
        "country": "DE",
        "type": "air_base",
        "operator": "Unknown",
        "source": "ourairports",
        "confidence": 0.58,
        "inferred_from": "name_or_keywords",
        "airport_type": "closed",
        "region_hint": "Europe"
      }
    },
    {
      "type": "Feature",
      "geometry": {
        "type": "Point",
        "coordinates": [
          8.549981,
          50.135764
        ]
      },
      "properties": {
        "name": "Eschborn Air Base",
        "country": "DE",
        "type": "air_base",
        "operator": "Unknown",
        "source": "ourairports",
        "confidence": 0.58,
        "inferred_from": "name_or_keywords",
        "airport_type": "closed",
        "region_hint": "Europe"
      }
    },
    {
      "type": "Feature",
      "geometry": {
        "type": "Point",
        "coordinates": [
          12.807269,
          52.226452
        ]
      },
      "properties": {
        "name": "Lehnin Military Training Area Heliport",
        "country": "DE",
        "type": "air_base",
        "operator": "Unknown",
        "source": "ourairports",
        "confidence": 0.58,
        "inferred_from": "name_or_keywords",
        "airport_type": "heliport",
        "region_hint": "Europe"
      }
    },
    {
      "type": "Feature",
      "geometry": {
        "type": "Point",
        "coordinates": [
          12.798691,
          52.213658
        ]
      },
      "properties": {
        "name": "Lehnin Military Training Area Fläming Barracks Heliport",
        "country": "DE",
        "type": "air_base",
        "operator": "Unknown",
        "source": "ourairports",
        "confidence": 0.58,
        "inferred_from": "name_or_keywords",
        "airport_type": "heliport",
        "region_hint": "Europe"
      }
    },
    {
      "type": "Feature",
      "geometry": {
        "type": "Point",
        "coordinates": [
          10.077857,
          53.596875
        ]
      },
      "properties": {
        "name": "Hamburg Military Hospital Helipad",
        "country": "DE",
        "type": "air_base",
        "operator": "Unknown",
        "source": "ourairports",
        "confidence": 0.58,
        "inferred_from": "name_or_keywords",
        "airport_type": "heliport",
        "region_hint": "Europe"
      }
    },
    {
      "type": "Feature",
      "geometry": {
        "type": "Point",
        "coordinates": [
          9.947619,
          48.424923
        ]
      },
      "properties": {
        "name": "Ulm Military Hospital Emergency Heliport",
        "country": "DE",
        "type": "air_base",
        "operator": "Unknown",
        "source": "ourairports",
        "confidence": 0.58,
        "inferred_from": "name_or_keywords",
        "airport_type": "heliport",
        "region_hint": "Europe"
      }
    },
    {
      "type": "Feature",
      "geometry": {
        "type": "Point",
        "coordinates": [
          11.84035,
          49.4209
        ]
      },
      "properties": {
        "name": "Amberg Army Airfield",
        "country": "DE",
        "type": "air_base",
        "operator": "Unknown",
        "source": "ourairports",
        "confidence": 0.58,
        "inferred_from": "name_or_keywords",
        "airport_type": "closed",
        "region_hint": "Europe"
      }
    },
    {
      "type": "Feature",
      "geometry": {
        "type": "Point",
        "coordinates": [
          13.7817,
          51.8675
        ]
      },
      "properties": {
        "name": "Alteno Air Base",
        "country": "DE",
        "type": "air_base",
        "operator": "Unknown",
        "source": "ourairports",
        "confidence": 0.58,
        "inferred_from": "name_or_keywords",
        "airport_type": "closed",
        "region_hint": "Europe"
      }
    },
    {
      "type": "Feature",
      "geometry": {
        "type": "Point",
        "coordinates": [
          8.16088,
          53.18025
        ]
      },
      "properties": {
        "name": "Oldenburg Air Base",
        "country": "DE",
        "type": "air_base",
        "operator": "Unknown",
        "source": "ourairports",
        "confidence": 0.58,
        "inferred_from": "name_or_keywords",
        "airport_type": "closed",
        "region_hint": "Europe"
      }
    },
    {
      "type": "Feature",
      "geometry": {
        "type": "Point",
        "coordinates": [
          9.464,
          54.823
        ]
      },
      "properties": {
        "name": "Fahrensodde Naval Air Base",
        "country": "DE",
        "type": "air_base",
        "operator": "Unknown",
        "source": "ourairports",
        "confidence": 0.58,
        "inferred_from": "name_or_keywords",
        "airport_type": "closed",
        "region_hint": "Europe"
      }
    },
    {
      "type": "Feature",
      "geometry": {
        "type": "Point",
        "coordinates": [
          8.46649,
          51.61574
        ]
      },
      "properties": {
        "name": "Störmede Air Base",
        "country": "DE",
        "type": "air_base",
        "operator": "Unknown",
        "source": "ourairports",
        "confidence": 0.58,
        "inferred_from": "name_or_keywords",
        "airport_type": "closed",
        "region_hint": "Europe"
      }
    },
    {
      "type": "Feature",
      "geometry": {
        "type": "Point",
        "coordinates": [
          10.43434,
          51.93223
        ]
      },
      "properties": {
        "name": "Goslar Air Base",
        "country": "DE",
        "type": "air_base",
        "operator": "Unknown",
        "source": "ourairports",
        "confidence": 0.58,
        "inferred_from": "name_or_keywords",
        "airport_type": "closed",
        "region_hint": "Europe"
      }
    },
    {
      "type": "Feature",
      "geometry": {
        "type": "Point",
        "coordinates": [
          9.8039,
          48.8141
        ]
      },
      "properties": {
        "name": "Schwäbisch Gmünd Army Airfield",
        "country": "DE",
        "type": "air_base",
        "operator": "Unknown",
        "source": "ourairports",
        "confidence": 0.58,
        "inferred_from": "name_or_keywords",
        "airport_type": "closed",
        "region_hint": "Europe"
      }
    },
    {
      "type": "Feature",
      "geometry": {
        "type": "Point",
        "coordinates": [
          7.88867,
          53.533501
        ]
      },
      "properties": {
        "name": "Jever Air Base",
        "country": "DE",
        "type": "air_base",
        "operator": "Unknown",
        "source": "ourairports",
        "confidence": 0.58,
        "inferred_from": "name_or_keywords",
        "airport_type": "closed",
        "region_hint": "Europe"
      }
    },
    {
      "type": "Feature",
      "geometry": {
        "type": "Point",
        "coordinates": [
          10.906,
          48.070599
        ]
      },
      "properties": {
        "name": "Landsberg am Lech Air Base",
        "country": "DE",
        "type": "air_base",
        "operator": "Unknown",
        "source": "ourairports",
        "confidence": 0.58,
        "inferred_from": "name_or_keywords",
        "airport_type": "closed",
        "region_hint": "Europe"
      }
    },
    {
      "type": "Feature",
      "geometry": {
        "type": "Point",
        "coordinates": [
          11.9487,
          48.3223
        ]
      },
      "properties": {
        "name": "Erding Air Base",
        "country": "DE",
        "type": "air_base",
        "operator": "Unknown",
        "source": "ourairports",
        "confidence": 0.58,
        "inferred_from": "name_or_keywords",
        "airport_type": "closed",
        "region_hint": "Europe"
      }
    },
    {
      "type": "Feature",
      "geometry": {
        "type": "Point",
        "coordinates": [
          11.266944,
          48.205555
        ]
      },
      "properties": {
        "name": "Fürstenfeldbruck Air Base",
        "country": "DE",
        "type": "air_base",
        "operator": "Unknown",
        "source": "ourairports",
        "confidence": 0.58,
        "inferred_from": "name_or_keywords",
        "airport_type": "closed",
        "region_hint": "Europe"
      }
    },
    {
      "type": "Feature",
      "geometry": {
        "type": "Point",
        "coordinates": [
          8.308732,
          51.922104
        ]
      },
      "properties": {
        "name": "Gütersloh Air Base",
        "country": "DE",
        "type": "air_base",
        "operator": "Unknown",
        "source": "ourairports",
        "confidence": 0.58,
        "inferred_from": "name_or_keywords",
        "airport_type": "closed",
        "region_hint": "Europe"
      }
    },
    {
      "type": "Feature",
      "geometry": {
        "type": "Point",
        "coordinates": [
          14.292,
          51.767899
        ]
      },
      "properties": {
        "name": "Cottbus Army Airfield",
        "country": "DE",
        "type": "air_base",
        "operator": "Unknown",
        "source": "ourairports",
        "confidence": 0.58,
        "inferred_from": "name_or_keywords",
        "airport_type": "closed",
        "region_hint": "Europe"
      }
    },
    {
      "type": "Feature",
      "geometry": {
        "type": "Point",
        "coordinates": [
          9.346,
          54.624802
        ]
      },
      "properties": {
        "name": "Eggebeck Air Base",
        "country": "DE",
        "type": "air_base",
        "operator": "Unknown",
        "source": "ourairports",
        "confidence": 0.58,
        "inferred_from": "name_or_keywords",
        "airport_type": "closed",
        "region_hint": "Europe"
      }
    },
    {
      "type": "Feature",
      "geometry": {
        "type": "Point",
        "coordinates": [
          7.5413298606873,
          52.33869934082
        ]
      },
      "properties": {
        "name": "Hopsten Air Base",
        "country": "DE",
        "type": "air_base",
        "operator": "Unknown",
        "source": "ourairports",
        "confidence": 0.58,
        "inferred_from": "name_or_keywords",
        "airport_type": "closed",
        "region_hint": "Europe"
      }
    },
    {
      "type": "Feature",
      "geometry": {
        "type": "Point",
        "coordinates": [
          6.13208,
          51.199699
        ]
      },
      "properties": {
        "name": "Brüggen Air Base",
        "country": "DE",
        "type": "air_base",
        "operator": "Unknown",
        "source": "ourairports",
        "confidence": 0.58,
        "inferred_from": "name_or_keywords",
        "airport_type": "closed",
        "region_hint": "Europe"
      }
    },
    {
      "type": "Feature",
      "geometry": {
        "type": "Point",
        "coordinates": [
          10.2356,
          48.439999
        ]
      },
      "properties": {
        "name": "Leipheim Air Base",
        "country": "DE",
        "type": "air_base",
        "operator": "Unknown",
        "source": "ourairports",
        "confidence": 0.58,
        "inferred_from": "name_or_keywords",
        "airport_type": "closed",
        "region_hint": "Europe"
      }
    },
    {
      "type": "Feature",
      "geometry": {
        "type": "Point",
        "coordinates": [
          8.236055,
          52.888915
        ]
      },
      "properties": {
        "name": "Ahlhorn Air Force Base",
        "country": "DE",
        "type": "air_base",
        "operator": "Unknown",
        "source": "ourairports",
        "confidence": 0.58,
        "inferred_from": "name_or_keywords",
        "airport_type": "closed",
        "region_hint": "Europe"
      }
    },
    {
      "type": "Feature",
      "geometry": {
        "type": "Point",
        "coordinates": [
          6.2151,
          51.1141
        ]
      },
      "properties": {
        "name": "RAF Wildenrath",
        "country": "DE",
        "type": "air_base",
        "operator": "Unknown",
        "source": "ourairports",
        "confidence": 0.58,
        "inferred_from": "name_or_keywords",
        "airport_type": "closed",
        "region_hint": "Europe"
      }
    },
    {
      "type": "Feature",
      "geometry": {
        "type": "Point",
        "coordinates": [
          7.866,
          49.507
        ]
      },
      "properties": {
        "name": "Sembach Air Base",
        "country": "DE",
        "type": "air_base",
        "operator": "Unknown",
        "source": "ourairports",
        "confidence": 0.58,
        "inferred_from": "name_or_keywords",
        "airport_type": "closed",
        "region_hint": "Europe"
      }
    },
    {
      "type": "Feature",
      "geometry": {
        "type": "Point",
        "coordinates": [
          7.603333,
          49.855
        ]
      },
      "properties": {
        "name": "Pferdsfeld Air Base",
        "country": "DE",
        "type": "air_base",
        "operator": "Unknown",
        "source": "ourairports",
        "confidence": 0.58,
        "inferred_from": "name_or_keywords",
        "airport_type": "closed",
        "region_hint": "Europe"
      }
    },
    {
      "type": "Feature",
      "geometry": {
        "type": "Point",
        "coordinates": [
          9.193081,
          55.697936
        ]
      },
      "properties": {
        "name": "Vandel Air Base",
        "country": "DK",
        "type": "air_base",
        "operator": "Unknown",
        "source": "ourairports",
        "confidence": 0.58,
        "inferred_from": "name_or_keywords",
        "airport_type": "closed",
        "region_hint": "Europe"
      }
    },
    {
      "type": "Feature",
      "geometry": {
        "type": "Point",
        "coordinates": [
          12.3239,
          55.769501
        ]
      },
      "properties": {
        "name": "Værløse Air Base",
        "country": "DK",
        "type": "air_base",
        "operator": "Unknown",
        "source": "ourairports",
        "confidence": 0.58,
        "inferred_from": "name_or_keywords",
        "airport_type": "closed",
        "region_hint": "Europe"
      }
    },
    {
      "type": "Feature",
      "geometry": {
        "type": "Point",
        "coordinates": [
          11.783,
          55.083
        ]
      },
      "properties": {
        "name": "Avnø Air Base",
        "country": "DK",
        "type": "air_base",
        "operator": "Unknown",
        "source": "ourairports",
        "confidence": 0.58,
        "inferred_from": "name_or_keywords",
        "airport_type": "closed",
        "region_hint": "Europe"
      }
    },
    {
      "type": "Feature",
      "geometry": {
        "type": "Point",
        "coordinates": [
          9.787016,
          37.242356
        ]
      },
      "properties": {
        "name": "Bizerte Sidi Ahmed Air Base",
        "country": "TN",
        "type": "air_base",
        "operator": "Unknown",
        "source": "ourairports",
        "confidence": 0.58,
        "inferred_from": "name_or_keywords",
        "airport_type": "medium_airport",
        "region_hint": "Europe"
      }
    },
    {
      "type": "Feature",
      "geometry": {
        "type": "Point",
        "coordinates": [
          3.06608,
          36.72064
        ]
      },
      "properties": {
        "name": "Ain Naadja Military Hospital Helipad",
        "country": "DZ",
        "type": "air_base",
        "operator": "Unknown",
        "source": "ourairports",
        "confidence": 0.58,
        "inferred_from": "name_or_keywords",
        "airport_type": "heliport",
        "region_hint": "Europe"
      }
    },
    {
      "type": "Feature",
      "geometry": {
        "type": "Point",
        "coordinates": [
          2.20544,
          36.59431
        ]
      },
      "properties": {
        "name": "Cherchell Military Academy Heliport",
        "country": "DZ",
        "type": "air_base",
        "operator": "Unknown",
        "source": "ourairports",
        "confidence": 0.58,
        "inferred_from": "name_or_keywords",
        "airport_type": "heliport",
        "region_hint": "Europe"
      }
    },
    {
      "type": "Feature",
      "geometry": {
        "type": "Point",
        "coordinates": [
          4.76833,
          50.758598
        ]
      },
      "properties": {
        "name": "Beauvechain Air Base",
        "country": "BE",
        "type": "air_base",
        "operator": "Unknown",
        "source": "ourairports",
        "confidence": 0.58,
        "inferred_from": "name_or_keywords",
        "airport_type": "medium_airport",
        "region_hint": "Europe"
      }
    },
    {
      "type": "Feature",
      "geometry": {
        "type": "Point",
        "coordinates": [
          5.47,
          51.168301
        ]
      },
      "properties": {
        "name": "Kleine Brogel Air Base",
        "country": "BE",
        "type": "air_base",
        "operator": "Unknown",
        "source": "ourairports",
        "confidence": 0.58,
        "inferred_from": "name_or_keywords",
        "airport_type": "medium_airport",
        "region_hint": "Europe"
      }
    },
    {
      "type": "Feature",
      "geometry": {
        "type": "Point",
        "coordinates": [
          5.227405,
          49.891483
        ]
      },
      "properties": {
        "name": "Jehonville Air Base",
        "country": "BE",
        "type": "air_base",
        "operator": "Unknown",
        "source": "ourairports",
        "confidence": 0.58,
        "inferred_from": "name_or_keywords",
        "airport_type": "small_airport",
        "region_hint": "Europe"
      }
    },
    {
      "type": "Feature",
      "geometry": {
        "type": "Point",
        "coordinates": [
          3.8310000896453857,
          50.575801849365234
        ]
      },
      "properties": {
        "name": "Chièvres Air Base",
        "country": "BE",
        "type": "air_base",
        "operator": "Unknown",
        "source": "ourairports",
        "confidence": 0.58,
        "inferred_from": "name_or_keywords",
        "airport_type": "medium_airport",
        "region_hint": "Europe"
      }
    },
    {
      "type": "Feature",
      "geometry": {
        "type": "Point",
        "coordinates": [
          2.65278,
          51.090302
        ]
      },
      "properties": {
        "name": "Koksijde Air Base",
        "country": "BE",
        "type": "air_base",
        "operator": "Unknown",
        "source": "ourairports",
        "confidence": 0.58,
        "inferred_from": "name_or_keywords",
        "airport_type": "medium_airport",
        "region_hint": "Europe"
      }
    },
    {
      "type": "Feature",
      "geometry": {
        "type": "Point",
        "coordinates": [
          4.64583015442,
          50.2433013916
        ]
      },
      "properties": {
        "name": "Florennes Air Base",
        "country": "BE",
        "type": "air_base",
        "operator": "Unknown",
        "source": "ourairports",
        "confidence": 0.58,
        "inferred_from": "name_or_keywords",
        "airport_type": "medium_airport",
        "region_hint": "Europe"
      }
    },
    {
      "type": "Feature",
      "geometry": {
        "type": "Point",
        "coordinates": [
          4.491005,
          50.913419
        ]
      },
      "properties": {
        "name": "Melsbroek Air Base",
        "country": "BE",
        "type": "air_base",
        "operator": "Unknown",
        "source": "ourairports",
        "confidence": 0.58,
        "inferred_from": "name_or_keywords",
        "airport_type": "small_airport",
        "region_hint": "Europe"
      }
    },
    {
      "type": "Feature",
      "geometry": {
        "type": "Point",
        "coordinates": [
          5.593549,
          50.949352
        ]
      },
      "properties": {
        "name": "Zutendaal Air Base",
        "country": "BE",
        "type": "air_base",
        "operator": "Unknown",
        "source": "ourairports",
        "confidence": 0.58,
        "inferred_from": "name_or_keywords",
        "airport_type": "small_airport",
        "region_hint": "Europe"
      }
    },
    {
      "type": "Feature",
      "geometry": {
        "type": "Point",
        "coordinates": [
          5.44081,
          50.034401
        ]
      },
      "properties": {
        "name": "Saint Hubert Air Base",
        "country": "BE",
        "type": "air_base",
        "operator": "Unknown",
        "source": "ourairports",
        "confidence": 0.58,
        "inferred_from": "name_or_keywords",
        "airport_type": "small_airport",
        "region_hint": "Europe"
      }
    },
    {
      "type": "Feature",
      "geometry": {
        "type": "Point",
        "coordinates": [
          3.47556,
          51.144199
        ]
      },
      "properties": {
        "name": "Ursel Air Base",
        "country": "BE",
        "type": "air_base",
        "operator": "Unknown",
        "source": "ourairports",
        "confidence": 0.58,
        "inferred_from": "name_or_keywords",
        "airport_type": "small_airport",
        "region_hint": "Europe"
      }
    },
    {
      "type": "Feature",
      "geometry": {
        "type": "Point",
        "coordinates": [
          4.96019,
          51.394798
        ]
      },
      "properties": {
        "name": "Weelde Air Base",
        "country": "BE",
        "type": "air_base",
        "operator": "Unknown",
        "source": "ourairports",
        "confidence": 0.58,
        "inferred_from": "name_or_keywords",
        "airport_type": "small_airport",
        "region_hint": "Europe"
      }
    },
    {
      "type": "Feature",
      "geometry": {
        "type": "Point",
        "coordinates": [
          22.44499969482422,
          58.3650016784668
        ]
      },
      "properties": {
        "name": "Aste Air Base",
        "country": "EE",
        "type": "air_base",
        "operator": "Unknown",
        "source": "ourairports",
        "confidence": 0.58,
        "inferred_from": "name_or_keywords",
        "airport_type": "closed",
        "region_hint": "Europe"
      }
    },
    {
      "type": "Feature",
      "geometry": {
        "type": "Point",
        "coordinates": [
          23.488899,
          58.911098
        ]
      },
      "properties": {
        "name": "Haapsalu Air Base",
        "country": "EE",
        "type": "air_base",
        "operator": "Unknown",
        "source": "ourairports",
        "confidence": 0.58,
        "inferred_from": "name_or_keywords",
        "airport_type": "closed",
        "region_hint": "Europe"
      }
    },
    {
      "type": "Feature",
      "geometry": {
        "type": "Point",
        "coordinates": [
          22.2644062,
          58.3121457
        ]
      },
      "properties": {
        "name": "Kagul Air Base",
        "country": "EE",
        "type": "air_base",
        "operator": "Unknown",
        "source": "ourairports",
        "confidence": 0.58,
        "inferred_from": "name_or_keywords",
        "airport_type": "closed",
        "region_hint": "Europe"
      }
    },
    {
      "type": "Feature",
      "geometry": {
        "type": "Point",
        "coordinates": [
          25.578403,
          58.661853
        ]
      },
      "properties": {
        "name": "Võhma Air Base",
        "country": "EE",
        "type": "air_base",
        "operator": "Unknown",
        "source": "ourairports",
        "confidence": 0.58,
        "inferred_from": "name_or_keywords",
        "airport_type": "closed",
        "region_hint": "Europe"
      }
    },
    {
      "type": "Feature",
      "geometry": {
        "type": "Point",
        "coordinates": [
          25.948299407958984,
          58.189998626708984
        ]
      },
      "properties": {
        "name": "Tõrva Air Base",
        "country": "EE",
        "type": "air_base",
        "operator": "Unknown",
        "source": "ourairports",
        "confidence": 0.58,
        "inferred_from": "name_or_keywords",
        "airport_type": "closed",
        "region_hint": "Europe"
      }
    },
    {
      "type": "Feature",
      "geometry": {
        "type": "Point",
        "coordinates": [
          26.07670021057129,
          57.81330108642578
        ]
      },
      "properties": {
        "name": "Valga Air Base",
        "country": "EE",
        "type": "air_base",
        "operator": "Unknown",
        "source": "ourairports",
        "confidence": 0.58,
        "inferred_from": "name_or_keywords",
        "airport_type": "closed",
        "region_hint": "Europe"
      }
    },
    {
      "type": "Feature",
      "geometry": {
        "type": "Point",
        "coordinates": [
          26.311701,
          59.536701
        ]
      },
      "properties": {
        "name": "Kunda Air Base",
        "country": "EE",
        "type": "air_base",
        "operator": "Unknown",
        "source": "ourairports",
        "confidence": 0.58,
        "inferred_from": "name_or_keywords",
        "airport_type": "closed",
        "region_hint": "Europe"
      }
    },
    {
      "type": "Feature",
      "geometry": {
        "type": "Point",
        "coordinates": [
          25.9622,
          59.240799
        ]
      },
      "properties": {
        "name": "Tapa Air Base",
        "country": "EE",
        "type": "air_base",
        "operator": "Unknown",
        "source": "ourairports",
        "confidence": 0.58,
        "inferred_from": "name_or_keywords",
        "airport_type": "closed",
        "region_hint": "Europe"
      }
    },
    {
      "type": "Feature",
      "geometry": {
        "type": "Point",
        "coordinates": [
          26.7761,
          58.404701
        ]
      },
      "properties": {
        "name": "Raadi Air Base",
        "country": "EE",
        "type": "air_base",
        "operator": "Unknown",
        "source": "ourairports",
        "confidence": 0.58,
        "inferred_from": "name_or_keywords",
        "airport_type": "closed",
        "region_hint": "Europe"
      }
    },
    {
      "type": "Feature",
      "geometry": {
        "type": "Point",
        "coordinates": [
          24.204799,
          59.259599
        ]
      },
      "properties": {
        "name": "Ämari Air Base",
        "country": "EE",
        "type": "air_base",
        "operator": "Unknown",
        "source": "ourairports",
        "confidence": 0.58,
        "inferred_from": "name_or_keywords",
        "airport_type": "medium_airport",
        "region_hint": "Europe"
      }
    },
    {
      "type": "Feature",
      "geometry": {
        "type": "Point",
        "coordinates": [
          26.9384,
          60.8964
        ]
      },
      "properties": {
        "name": "Utti Air Base",
        "country": "FI",
        "type": "air_base",
        "operator": "Unknown",
        "source": "ourairports",
        "confidence": 0.58,
        "inferred_from": "name_or_keywords",
        "airport_type": "medium_airport",
        "region_hint": "Europe"
      }
    },
    {
      "type": "Feature",
      "geometry": {
        "type": "Point",
        "coordinates": [
          -2.54999995232,
          55.0499992371
        ]
      },
      "properties": {
        "name": "RAF Spadeadam",
        "country": "GB",
        "type": "air_base",
        "operator": "Unknown",
        "source": "ourairports",
        "confidence": 0.58,
        "inferred_from": "name_or_keywords",
        "airport_type": "medium_airport",
        "region_hint": "Europe"
      }
    },
    {
      "type": "Feature",
      "geometry": {
        "type": "Point",
        "coordinates": [
          -4.37355,
          53.258598
        ]
      },
      "properties": {
        "name": "RAF Mona",
        "country": "GB",
        "type": "air_base",
        "operator": "Unknown",
        "source": "ourairports",
        "confidence": 0.58,
        "inferred_from": "name_or_keywords",
        "airport_type": "small_airport",
        "region_hint": "Europe"
      }
    },
    {
      "type": "Feature",
      "geometry": {
        "type": "Point",
        "coordinates": [
          -2.66804,
          52.798199
        ]
      },
      "properties": {
        "name": "RAF Shawbury",
        "country": "GB",
        "type": "air_base",
        "operator": "Unknown",
        "source": "ourairports",
        "confidence": 0.58,
        "inferred_from": "name_or_keywords",
        "airport_type": "medium_airport",
        "region_hint": "Europe"
      }
    },
    {
      "type": "Feature",
      "geometry": {
        "type": "Point",
        "coordinates": [
          -3.05552,
          53.5816
        ]
      },
      "properties": {
        "name": "RAF Woodvale",
        "country": "GB",
        "type": "air_base",
        "operator": "Unknown",
        "source": "ourairports",
        "confidence": 0.58,
        "inferred_from": "name_or_keywords",
        "airport_type": "small_airport",
        "region_hint": "Europe"
      }
    },
    {
      "type": "Feature",
      "geometry": {
        "type": "Point",
        "coordinates": [
          -3.33917,
          57.7052
        ]
      },
      "properties": {
        "name": "RAF Lossiemouth",
        "country": "GB",
        "type": "air_base",
        "operator": "Unknown",
        "source": "ourairports",
        "confidence": 0.58,
        "inferred_from": "name_or_keywords",
        "airport_type": "medium_airport",
        "region_hint": "Europe"
      }
    },
    {
      "type": "Feature",
      "geometry": {
        "type": "Point",
        "coordinates": [
          -1.095991,
          51.614366
        ]
      },
      "properties": {
        "name": "RAF Benson",
        "country": "GB",
        "type": "air_base",
        "operator": "Unknown",
        "source": "ourairports",
        "confidence": 0.58,
        "inferred_from": "name_or_keywords",
        "airport_type": "medium_airport",
        "region_hint": "Europe"
      }
    },
    {
      "type": "Feature",
      "geometry": {
        "type": "Point",
        "coordinates": [
          -1.316568,
          51.690614
        ]
      },
      "properties": {
        "name": "RAF Abingdon",
        "country": "GB",
        "type": "air_base",
        "operator": "Unknown",
        "source": "ourairports",
        "confidence": 0.58,
        "inferred_from": "name_or_keywords",
        "airport_type": "small_airport",
        "region_hint": "Europe"
      }
    },
    {
      "type": "Feature",
      "geometry": {
        "type": "Point",
        "coordinates": [
          0.561161,
          52.40954
        ]
      },
      "properties": {
        "name": "RAF Lakenheath",
        "country": "GB",
        "type": "air_base",
        "operator": "Unknown",
        "source": "ourairports",
        "confidence": 0.58,
        "inferred_from": "name_or_keywords",
        "airport_type": "medium_airport",
        "region_hint": "Europe"
      }
    },
    {
      "type": "Feature",
      "geometry": {
        "type": "Point",
        "coordinates": [
          0.486406,
          52.3619
        ]
      },
      "properties": {
        "name": "RAF Mildenhall",
        "country": "GB",
        "type": "air_base",
        "operator": "Unknown",
        "source": "ourairports",
        "confidence": 0.58,
        "inferred_from": "name_or_keywords",
        "airport_type": "medium_airport",
        "region_hint": "Europe"
      }
    },
    {
      "type": "Feature",
      "geometry": {
        "type": "Point",
        "coordinates": [
          -1.789172,
          51.683568
        ]
      },
      "properties": {
        "name": "RAF Fairford",
        "country": "GB",
        "type": "air_base",
        "operator": "Unknown",
        "source": "ourairports",
        "confidence": 0.58,
        "inferred_from": "name_or_keywords",
        "airport_type": "medium_airport",
        "region_hint": "Europe"
      }
    },
    {
      "type": "Feature",
      "geometry": {
        "type": "Point",
        "coordinates": [
          -1.694984,
          51.866475
        ]
      },
      "properties": {
        "name": "RAF Little Rissington",
        "country": "GB",
        "type": "air_base",
        "operator": "Unknown",
        "source": "ourairports",
        "confidence": 0.58,
        "inferred_from": "name_or_keywords",
        "airport_type": "small_airport",
        "region_hint": "Europe"
      }
    },
    {
      "type": "Feature",
      "geometry": {
        "type": "Point",
        "coordinates": [
          -1.58362,
          51.75
        ]
      },
      "properties": {
        "name": "RAF Brize Norton",
        "country": "GB",
        "type": "air_base",
        "operator": "Unknown",
        "source": "ourairports",
        "confidence": 0.58,
        "inferred_from": "name_or_keywords",
        "airport_type": "medium_airport",
        "region_hint": "Europe"
      }
    },
    {
      "type": "Feature",
      "geometry": {
        "type": "Point",
        "coordinates": [
          -0.942825,
          51.2341
        ]
      },
      "properties": {
        "name": "RAF Odiham",
        "country": "GB",
        "type": "air_base",
        "operator": "Unknown",
        "source": "ourairports",
        "confidence": 0.58,
        "inferred_from": "name_or_keywords",
        "airport_type": "medium_airport",
        "region_hint": "Europe"
      }
    },
    {
      "type": "Feature",
      "geometry": {
        "type": "Point",
        "coordinates": [
          -2.305326,
          52.640524
        ]
      },
      "properties": {
        "name": "RAF Cosford",
        "country": "GB",
        "type": "air_base",
        "operator": "Unknown",
        "source": "ourairports",
        "confidence": 0.58,
        "inferred_from": "name_or_keywords",
        "airport_type": "medium_airport",
        "region_hint": "Europe"
      }
    },
    {
      "type": "Feature",
      "geometry": {
        "type": "Point",
        "coordinates": [
          -0.30385,
          52.0182
        ]
      },
      "properties": {
        "name": "RAF Henlow",
        "country": "GB",
        "type": "air_base",
        "operator": "Unknown",
        "source": "ourairports",
        "confidence": 0.58,
        "inferred_from": "name_or_keywords",
        "airport_type": "small_airport",
        "region_hint": "Europe"
      }
    },
    {
      "type": "Feature",
      "geometry": {
        "type": "Point",
        "coordinates": [
          -0.737972,
          51.790699
        ]
      },
      "properties": {
        "name": "RAF Halton",
        "country": "GB",
        "type": "air_base",
        "operator": "Unknown",
        "source": "ourairports",
        "confidence": 0.58,
        "inferred_from": "name_or_keywords",
        "airport_type": "small_airport",
        "region_hint": "Europe"
      }
    },
    {
      "type": "Feature",
      "geometry": {
        "type": "Point",
        "coordinates": [
          -0.418167,
          51.553001
        ]
      },
      "properties": {
        "name": "RAF Northolt",
        "country": "GB",
        "type": "air_base",
        "operator": "Unknown",
        "source": "ourairports",
        "confidence": 0.58,
        "inferred_from": "name_or_keywords",
        "airport_type": "medium_airport",
        "region_hint": "Europe"
      }
    },
    {
      "type": "Feature",
      "geometry": {
        "type": "Point",
        "coordinates": [
          -0.166014,
          53.092999
        ]
      },
      "properties": {
        "name": "RAF Coningsby",
        "country": "GB",
        "type": "air_base",
        "operator": "Unknown",
        "source": "ourairports",
        "confidence": 0.58,
        "inferred_from": "name_or_keywords",
        "airport_type": "medium_airport",
        "region_hint": "Europe"
      }
    },
    {
      "type": "Feature",
      "geometry": {
        "type": "Point",
        "coordinates": [
          -1.538944,
          54.297191
        ]
      },
      "properties": {
        "name": "RAF Leeming",
        "country": "GB",
        "type": "air_base",
        "operator": "Unknown",
        "source": "ourairports",
        "confidence": 0.58,
        "inferred_from": "name_or_keywords",
        "airport_type": "medium_airport",
        "region_hint": "Europe"
      }
    },
    {
      "type": "Feature",
      "geometry": {
        "type": "Point",
        "coordinates": [
          0.772939,
          52.342602
        ]
      },
      "properties": {
        "name": "RAF Honington",
        "country": "GB",
        "type": "air_base",
        "operator": "Unknown",
        "source": "ourairports",
        "confidence": 0.58,
        "inferred_from": "name_or_keywords",
        "airport_type": "medium_airport",
        "region_hint": "Europe"
      }
    },
    {
      "type": "Feature",
      "geometry": {
        "type": "Point",
        "coordinates": [
          -0.476453,
          52.612598
        ]
      },
      "properties": {
        "name": "RAF Wittering",
        "country": "GB",
        "type": "air_base",
        "operator": "Unknown",
        "source": "ourairports",
        "confidence": 0.58,
        "inferred_from": "name_or_keywords",
        "airport_type": "medium_airport",
        "region_hint": "Europe"
      }
    },
    {
      "type": "Feature",
      "geometry": {
        "type": "Point",
        "coordinates": [
          -0.523811,
          53.166199
        ]
      },
      "properties": {
        "name": "RAF Waddington",
        "country": "GB",
        "type": "air_base",
        "operator": "Unknown",
        "source": "ourairports",
        "confidence": 0.58,
        "inferred_from": "name_or_keywords",
        "airport_type": "medium_airport",
        "region_hint": "Europe"
      }
    },
    {
      "type": "Feature",
      "geometry": {
        "type": "Point",
        "coordinates": [
          -0.911111,
          53.0228
        ]
      },
      "properties": {
        "name": "RAF Syerston",
        "country": "GB",
        "type": "air_base",
        "operator": "Unknown",
        "source": "ourairports",
        "confidence": 0.58,
        "inferred_from": "name_or_keywords",
        "airport_type": "small_airport",
        "region_hint": "Europe"
      }
    },
    {
      "type": "Feature",
      "geometry": {
        "type": "Point",
        "coordinates": [
          -1.380265,
          54.204116
        ]
      },
      "properties": {
        "name": "RAF Topcliffe",
        "country": "GB",
        "type": "air_base",
        "operator": "Unknown",
        "source": "ourairports",
        "confidence": 0.58,
        "inferred_from": "name_or_keywords",
        "airport_type": "medium_airport",
        "region_hint": "Europe"
      }
    },
    {
      "type": "Feature",
      "geometry": {
        "type": "Point",
        "coordinates": [
          -0.493104,
          53.027308
        ]
      },
      "properties": {
        "name": "RAF Cranwell",
        "country": "GB",
        "type": "air_base",
        "operator": "Unknown",
        "source": "ourairports",
        "confidence": 0.58,
        "inferred_from": "name_or_keywords",
        "airport_type": "medium_airport",
        "region_hint": "Europe"
      }
    },